{"results": [{"location": {"address": "Lubyanskiy Drive, 15/2, wRussia", "address_extended": "\u0441\u0442\u0440. 2", "country": "RU", "cross_street": "", "formatted_address": "Lubyanskiy Drive, 15/2, wRussia, 101000, \u041c\u043e\u0441\u043a\u0432\u0430", "locality": "\u041c\u043e\u0441\u043a\u0432\u0430", "postcode": "101000", "region": "\u041c\u043e\u0441\u043a\u0432\u0430"}, "name": "Casa Leone", "rating": 8.7}, {"location": {"address": "\u0422\u0432\u0435\u0440\u0441\u043a\u043e\u0439 \u0431\u0443\u043b\u044c\u0432., 26\u0430", "country": "RU", "cross_street": "\u0422\u0432\u0435\u0440\u0441\u043a\u0430\u044f \u0443\u043b.", "formatted_address": "\u0422\u0432\u0435\u0440\u0441\u043a\u043e\u0439 \u0431\u0443\u043b\u044c\u0432., 26\u0430 (\u0422\u0432\u0435\u0440\u0441\u043a\u0430\u044f \u0443\u043b.), 125009, \u041c\u043e\u0441\u043a\u0432\u0430", "locality": "\u041c\u043e\u0441\u043a\u0432\u0430", "postcode": "125009", "region": "\u041c\u043e\u0441\u043a\u0432\u0430"}, "name": "Cafe Pushkin (\u041a\u0430\u0444\u0435 \u041f\u0443\u0448\u043a\u0438\u043d\u044a)", "rating": 8.9}, {"location": {"address": "\u0421\u044b\u0440\u043e\u043c\u044f\u0442\u043d\u0438\u0447\u0435\u0441\u043a\u0438\u0439 4-\u0439 \u043f\u0435\u0440., 1/8 \u0441\u04426", "address_extended": "\u043a\u043e\u0440\u043f. 10", "country": "RU", "cross_street": "4-\u0439 \u0421\u044b\u0440\u043e\u043c\u044f\u0442\u043d\u0438\u0447\u0435\u0441\u043a\u0438\u0439 \u043f\u0435\u0440., 1, \u0441\u0442\u0440. 6", "formatted_address": "\u0421\u044b\u0440\u043e\u043c\u044f\u0442\u043d\u0438\u0447\u0435\u0441\u043a\u0438\u0439 4-\u0439 \u043f\u0435\u0440., 1/8 \u0441\u04426 (4-\u0439 \u0421\u044b\u0440\u043e\u043c\u044f\u0442\u043d\u0438\u0447\u0435\u0441\u043a\u0438\u0439 \u043f\u0435\u0440., 1, \u0441\u0442\u0440. 6), \u041c\u043e\u0441\u043a\u0432\u0430", "locality": "\u041c\u043e\u0441\u043a\u0432\u0430", "region": "\u041c\u043e\u0441\u043a\u0432\u0430"}, "name": "Hitrye Lyudi (\u0425\u0438\u0442\u0440\u044b\u0435 \u043b\u044e\u0434\u0438)", "rating": 7.9}, {"location": {"country": "RU", "cross_street": "", "formatted_address": "\u041c\u043e\u0441\u043a\u0432\u0430", "locality": "\u041c\u043e\u0441\u043a\u0432\u0430", "region": "\u041c\u043e\u0441\u043a\u0432\u0430"}, "name": "\u0410\u043d\u0434\u0435\u0440\u0441\u043e\u043d \u043d\u0430 \u0434\u0430\u0447\u0435", "rating": 7.7}, {"location": {"address": "\u041a\u0443\u0441\u043a\u043e\u0432\u0441\u043a\u0430\u044f, 47", "country": "RU", "cross_street": "", "formatted_address": "\u041a\u0443\u0441\u043a\u043e\u0432\u0441\u043a\u0430\u044f, 47, 111394, \u041c\u043e\u0441\u043a\u0432\u0430", "locality": "\u041c\u043e\u0441\u043a\u0432\u0430", "postcode": "111394", "region": "\u041c\u043e\u0441\u043a\u0432\u0430"}, "name": "\u0410\u043d\u0434\u0435\u0440\u0441\u043e\u043d", "rating": 7.8}, {"location": {"address": "\u0427\u0438\u0441\u0442\u043e\u043f\u0440\u0443\u0434\u043d\u044b\u0439 \u0431\u0443\u043b\u044c\u0432., 12\u0430 \u0441\u04426", "address_extended": "\u0441\u0442\u0440. 6", "country": "RU", "cross_street": "\u0443\u043b. \u041f\u043e\u043a\u0440\u043e\u0432\u043a\u0430", "formatted_address": "\u0427\u0438\u0441\u0442\u043e\u043f\u0440\u0443\u0434\u043d\u044b\u0439 \u0431\u0443\u043b\u044c\u0432., 12\u0430 \u0441\u04426 (\u0443\u043b. \u041f\u043e\u043a\u0440\u043e\u0432\u043a\u0430), 101000, \u041c\u043e\u0441\u043a\u0432\u0430", "locality": "\u041c\u043e\u0441\u043a\u0432\u0430", "postcode": "101000", "region": "\u041c\u043e\u0441\u043a\u0432\u0430"}, "name": "\u0428\u0430\u0442\u0451\u0440", "rating": 8.0}, {"location": {"address": "\u0411\u043e\u043b\u044c\u0448\u0430\u044f \u041d\u0438\u043a\u0438\u0442\u0441\u043a\u0430\u044f \u0423\u043b., \u0434. 12", "country": "RU", "cross_street": "\u0413\u0430\u0437\u0435\u0442\u043d\u044b\u0439 \u043f\u0435\u0440.", "formatted_address": "\u0411\u043e\u043b\u044c\u0448\u0430\u044f \u041d\u0438\u043a\u0438\u0442\u0441\u043a\u0430\u044f \u0423\u043b., \u0434. 12 (\u0413\u0430\u0437\u0435\u0442\u043d\u044b\u0439 \u043f\u0435\u0440.), \u041c\u043e\u0441\u043a\u0432\u0430", "locality": "\u041c\u043e\u0441\u043a\u0432\u0430", "region": "\u041c\u043e\u0441\u043a\u0432\u0430"}, "name": "Ugolek (\u0423\u0433\u043e\u043b\u0451\u043a)", "rating": 8.5}, {"location": {"address": "\u041c\u0430\u043b\u0430\u044f \u0411\u0440\u043e\u043d\u043d\u0430\u044f \u0423\u043b., \u0434. 20\u0430", "country": "RU", "formatted_address": "\u041c\u0430\u043b\u0430\u044f \u0411\u0440\u043e\u043d\u043d\u0430\u044f \u0423\u043b., \u0434. 20\u0430, 123104, \u041c\u043e\u0441\u043a\u0432\u0430", "locality": "\u041c\u043e\u0441\u043a\u0432\u0430", "postcode": "123104", "region": "\u041c\u043e\u0441\u043a\u0432\u0430"}, "name": "Uilliam's", "rating": 8.1}, {"location": {"address": "\u041c\u0430\u0440\u0448\u0430\u043b\u0430 \u0416\u0443\u043a\u043e\u0432\u0430 \u041f\u0440., \u0434. 43", "address_extended": "\u043a\u043e\u0440\u043f. 5", "country": "RU", "cross_street": "", "formatted_address": "\u041c\u0430\u0440\u0448\u0430\u043b\u0430 \u0416\u0443\u043a\u043e\u0432\u0430 \u041f\u0440., \u0434. 43, 123423, \u041c\u043e\u0441\u043a\u0432\u0430", "locality": "\u041c\u043e\u0441\u043a\u0432\u0430", "postcode": "123423", "region": "\u041c\u043e\u0441\u043a\u0432\u0430"}, "name": "Well's Home Cafe", "rating": 8.0}, {"location": {"address": "\u0428\u043c\u0438\u0442\u043e\u0432\u0441\u043a\u0438\u0439 \u041f\u0440., 10/7", "country": "RU", "cross_street": "\u0443\u043b. \u0410\u043d\u043d\u044b \u0421\u0435\u0432\u0435\u0440\u044c\u044f\u043d\u043e\u0432\u043e\u0439", "formatted_address": "\u0428\u043c\u0438\u0442\u043e\u0432\u0441\u043a\u0438\u0439 \u041f\u0440., 10/7 (\u0443\u043b. \u0410\u043d\u043d\u044b \u0421\u0435\u0432\u0435\u0440\u044c\u044f\u043d\u043e\u0432\u043e\u0439), \u041c\u043e\u0441\u043a\u0432\u0430", "locality": "\u041c\u043e\u0441\u043a\u0432\u0430", "region": "\u041c\u043e\u0441\u043a\u0432\u0430"}, "name": "\u041a\u0443\u043b\u0438\u043d\u0430\u0440\u043d\u0430\u044f \u043b\u0430\u0432\u043a\u0430 \u0431\u0440\u0430\u0442\u044c\u0435\u0432 \u041a\u0430\u0440\u0430\u0432\u0430\u0435\u0432\u044b\u0445", "rating": 8.1}], "context": {"geo_bounds": {"circle": {"center": {"latitude": 55.75222, "longitude": 37.61556}, "radius": 24000}}}}